{
"type": "FeatureCollection",
"name": "Compost_Bins",
"crs": { "type": "name", "properties": { "name": "urn:ogc:def:crs:OGC:1.3:CRS84" } },
"features": [
{ "type": "Feature", "properties": { "fid": 1, "Location_Type": "Club Hall", "Capacity (L)": 300.0 }, "geometry": { "type": "Point", "coordinates": [ 28.229424761412869, -25.754435252397545 ] } },
{ "type": "Feature", "properties": { "fid": 2, "Location_Type": "Aula", "Capacity (L)": 300.0 }, "geometry": { "type": "Point", "coordinates": [ 28.2291282577952, -25.753803986630892 ] } },
{ "type": "Feature", "properties": { "fid": 3, "Location_Type": "Steers", "Capacity (L)": 300.0 }, "geometry": { "type": "Point", "coordinates": [ 28.228640461520968, -25.753593564708673 ] } },
{ "type": "Feature", "properties": { "fid": 4, "Location_Type": "Cafe", "Capacity (L)": 300.0 }, "geometry": { "type": "Point", "coordinates": [ 28.228716978583591, -25.75330662572383 ] } },
{ "type": "Feature", "properties": { "fid": 5, "Location_Type": "Piazza", "Capacity (L)": 1000.0 }, "geometry": { "type": "Point", "coordinates": [ 28.231634191596157, -25.754234395108156 ] } },
{ "type": "Feature", "properties": { "fid": 6, "Location_Type": "Monastery", "Capacity (L)": 300.0 }, "geometry": { "type": "Point", "coordinates": [ 28.23326974380976, -25.754330041436436 ] } },
{ "type": "Feature", "properties": { "fid": 7, "Location_Type": "Adlers", "Capacity (L)": 300.0 }, "geometry": { "type": "Point", "coordinates": [ 28.234235771725391, -25.75558300833692 ] } },
{ "type": "Feature", "properties": { "fid": 8, "Location_Type": "Vida-e Cafe", "Capacity (L)": 300.0 }, "geometry": { "type": "Point", "coordinates": [ 28.234111431498626, -25.755678654665203 ] } },
{ "type": "Feature", "properties": { "fid": 9, "Location_Type": "10z", "Capacity (L)": 300.0 }, "geometry": { "type": "Point", "coordinates": [ 28.23463748630417, -25.755936899751561 ] } }
]
}
